id,ident,type,name,latitude_deg,longitude_deg,elevation_ft,continent,country_name,iso_country,region_name,iso_region,local_region,municipality,scheduled_service,gps_code,iata_code,local_code,home_link,wikipedia_link,keywords,score,last_updated
"#meta +id","#meta +code","#loc +airport +type","#loc +airport +name","#geo +lat","#geo +lon","#geo +elevation +ft","#region +continent +code","#country +name","#country +code +iso2","#adm1 +name","#adm1 +code +iso","#adm1 +code +local","#loc +municipality +name","#status +scheduled","#loc +airport +code +gps","#loc +airport +code +iata","#loc +airport +code +local","#meta +url +airport","#meta +url +wikipedia","#meta +keywords","#meta +score","#date +updated"
5023,NZAA,large_airport,"Auckland International Airport",-37.01199,174.786331,23,OC,"New Zealand",NZ,"Auckland Region",NZ-AUK,AUK,Auckland,1,NZAA,AKL,,http://www.auckland-airport.co.nz/,https://en.wikipedia.org/wiki/Auckland_International_Airport,,51475,2022-03-29T22:03:00+00:00
5026,NZCH,large_airport,"Christchurch International Airport",-43.48939895629883,172.53199768066406,123,OC,"New Zealand",NZ,"Canterbury Region",NZ-CAN,CAN,Christchurch,1,NZCH,CHC,,http://www.christchurchairport.co.nz/,https://en.wikipedia.org/wiki/Christchurch_International_Airport,,1275,2008-06-13T14:30:04+00:00
5063,NZWN,large_airport,"Wellington International Airport",-41.3272018433,174.804992676,41,OC,"New Zealand",NZ,"Wellington Region",NZ-WGN,WGN,Wellington,1,NZWN,WLG,,http://www.wellingtonairport.co.nz/,https://en.wikipedia.org/wiki/Wellington_International_Airport,,1275,2010-02-12T14:03:11+00:00
5051,NZQN,medium_airport,"Queenstown International Airport",-45.021099,168.738998,1171,OC,"New Zealand",NZ,"Otago Region",NZ-OTA,OTA,Queenstown,1,NZQN,ZQN,,,https://en.wikipedia.org/wiki/Queenstown_International_Airport,,750,2020-10-12T10:14:25+00:00
5028,NZDN,medium_airport,"Dunedin International Airport",-45.928101,170.197998,4,OC,"New Zealand",NZ,"Otago Region",NZ-OTA,OTA,Dunedin,1,NZDN,DUD,,http://www.dnairport.co.nz/,https://en.wikipedia.org/wiki/Dunedin_International_Airport,,750,2021-08-06T16:50:17+00:00
5044,NZNS,medium_airport,"Nelson Airport",-41.298302,173.220993,17,OC,"New Zealand",NZ,"Nelson Region",NZ-NSN,NSN,Nelson,1,NZNS,NSN,,http://www.nelsonairport.co.nz/,https://en.wikipedia.org/wiki/Nelson_Airport_(New_Zealand),,750,2021-12-06T17:42:47+00:00
5052,NZRO,medium_airport,"Rotorua Regional Airport",-38.10919952392578,176.31700134277344,935,OC,"New Zealand",NZ,"Bay of Plenty Region",NZ-BOP,BOP,Rotorua,1,NZRO,ROT,,,https://en.wikipedia.org/wiki/Rotorua_Regional_Airport,,750,2009-08-23T20:50:01+00:00
5043,NZNR,medium_airport,"Hawke's Bay Airport",-39.465801,176.869995,6,OC,"New Zealand",NZ,"Hawke's Bay Region",NZ-HKB,HKB,Napier,1,NZNR,NPE,,http://www.hawkesbay-airport.co.nz/,https://en.wikipedia.org/wiki/Napier_Airport,,750,2016-09-19T03:35:56+00:00
30138,NZMF,small_airport,"Milford Sound Airport",-44.673301696777344,167.92300415039062,10,OC,"New Zealand",NZ,"Southland Region",NZ-STL,STL,,0,NZMF,MFN,,,,,50,2008-07-18T10:40:34+00:00
5033,NZHN,medium_airport,"Hamilton International Airport",-37.8666992188,175.332000732,172,OC,"New Zealand",NZ,"Waikato Region",NZ-WKO,WKO,Hamilton,1,NZHN,HLZ,,http://www.hamiltonairport.co.nz/,https://en.wikipedia.org/wiki/Hamilton_International_Airport,,750,2010-09-06T15:45:53+00:00
5045,NZNV,medium_airport,"Invercargill Airport",-46.41239929199219,168.31300354003906,5,OC,"New Zealand",NZ,"Southland Region",NZ-STL,STL,Invercargill,1,NZNV,IVC,,http://www.invercargillairport.co.nz/index.htm,https://en.wikipedia.org/wiki/Invercargill_Airport,,750,2008-06-13T14:30:04+00:00
5060,NZWF,medium_airport,"Wanaka Airport",-44.722954,169.248419,1142,OC,"New Zealand",NZ,"Otago Region",NZ-OTA,OTA,Wanaka,1,NZWF,WKA,,,https://en.wikipedia.org/wiki/Wanaka_Airport,"Luggate Airport",750,2021-10-14T17:36:21+00:00
30001,NZKI,small_airport,"Kaikoura Airport",-42.42499923706055,173.60499572753906,20,OC,"New Zealand",NZ,"Canterbury Region",NZ-CAN,CAN,,0,NZKI,KBZ,,,,,50,2008-07-18T10:52:57+00:00
5049,NZPM,medium_airport,"Palmerston North Airport",-40.320599,175.617004,151,OC,"New Zealand",NZ,"Manawatu-Wanganui Region",NZ-MWT,MWT,"Palmerston North",1,NZPM,PMR,,http://www.pnairport.co.nz/index.php,https://en.wikipedia.org/wiki/Palmerston_North_International_Airport,,750,2023-04-11T00:48:21+00:00
5055,NZTG,medium_airport,"Tauranga Airport",-37.67190170288086,176.1959991455078,13,OC,"New Zealand",NZ,"Bay of Plenty Region",NZ-BOP,BOP,Tauranga,1,NZTG,TRG,,,https://en.wikipedia.org/wiki/Tauranga_Airport,,750,2009-08-23T21:06:23+00:00
5058,NZWB,medium_airport,"Woodbourne Airport",-41.5182991027832,173.8699951171875,109,OC,"New Zealand",NZ,"Marlborough Region",NZ-MBH,MBH,Blenheim,1,NZWB,BHE,,,https://en.wikipedia.org/wiki/Woodbourne_Airport,,650,2008-07-18T11:49:40+00:00
5050,NZPP,medium_airport,"Paraparaumu Airport",-40.904701232910156,174.98899841308594,22,OC,"New Zealand",NZ,"Wellington Region",NZ-WGN,WGN,,0,NZPP,PPQ,,,https://en.wikipedia.org/wiki/Paraparaumu_Airport,,250,2008-06-13T14:30:04+00:00
5031,NZGT,medium_airport,"Glentanner Airport",-43.906700134277344,170.1280059814453,1824,OC,"New Zealand",NZ,"Canterbury Region",NZ-CAN,CAN,"Glentanner Station",0,NZGT,GTN,,,https://en.wikipedia.org/wiki/Glentanner_Aerodrome,"Lake Pukaki",250,2008-06-13T14:30:04+00:00
5041,NZMS,medium_airport,"Hood Airport",-40.974634,175.63454,364,OC,"New Zealand",NZ,"Wellington Region",NZ-WGN,WGN,Masterton,0,NZMS,MRO,,http://www.svas.org.nz/pages/hood_aerodrome_location.htm,https://en.wikipedia.org/wiki/Hood_Aerodrome,,250,2022-06-20T08:06:18+00:00
5032,NZHK,medium_airport,"Hokitika Airfield",-42.713600158691406,170.98500061035156,146,OC,"New Zealand",NZ,"West Coast Region",NZ-WTC,WTC,,1,NZHK,HKK,,,https://en.wikipedia.org/wiki/Hokitika_Airport,,750,2008-07-18T08:17:54+00:00
5042,NZNP,medium_airport,"New Plymouth Airport",-39.00859832763672,174.1790008544922,97,OC,"New Zealand",NZ,"Taranaki Region",NZ-TKI,TKI,"New Plymouth",1,NZNP,NPL,,,https://en.wikipedia.org/wiki/New_Plymouth_Airport,,750,2009-08-23T20:04:23+00:00
5027,NZCI,medium_airport,"Chatham Islands / Tuuta Airport",-43.81189,-176.46514,43,OC,"New Zealand",NZ,"Wellington Region",NZ-WGN,WGN,"Te One",1,NZCI,CHT,,,https://en.wikipedia.org/wiki/Chatham_Islands_/_Tuuta_Airport,Karewa,750,2021-10-14T17:26:57+00:00
5025,NZAR,medium_airport,"Ardmore Airport",-37.029701232910156,174.97300720214844,111,OC,"New Zealand",NZ,"Auckland Region",NZ-AUK,AUK,Manurewa,0,NZAR,AMZ,,http://www.nzar.co.nz/,https://en.wikipedia.org/wiki/Ardmore_Airport,,250,2009-08-10T09:17:52+00:00
5056,NZTU,medium_airport,"Timaru Airport",-44.302799224853516,171.22500610351562,89,OC,"New Zealand",NZ,"Canterbury Region",NZ-CAN,CAN,,1,NZTU,TIU,,,https://en.wikipedia.org/wiki/Richard_Pearse_Airport,,750,2008-06-13T14:30:04+00:00
5047,NZOU,medium_airport,"Oamaru Airport",-44.970001220703125,171.08200073242188,99,OC,"New Zealand",NZ,"Otago Region",NZ-OTA,OTA,,1,NZOU,OAM,,,https://en.wikipedia.org/wiki/Oamaru_Aerodrome,,750,2008-06-13T14:30:04+00:00
5024,NZAP,medium_airport,"Taupo Airport",-38.73970031738281,176.08399963378906,1335,OC,"New Zealand",NZ,"Waikato Region",NZ-WKO,WKO,Taupo,1,NZAP,TUO,,,https://en.wikipedia.org/wiki/Taupo_Airport,,750,2009-08-23T21:09:02+00:00
5046,NZOH,medium_airport,"RNZAF Base Ohakea",-40.20600128173828,175.38800048828125,164,OC,"New Zealand",NZ,"Manawatu-Wanganui Region",NZ-MWT,MWT,,0,NZOH,OHA,,http://www.airforce.mil.nz/about/hqbases/boh.htm,https://en.wikipedia.org/wiki/RNZAF_Base_Ohakea,,575,2008-07-18T11:42:11+00:00
30465,NZTL,small_airport,"Tekapo Aerodrome",-44.0052986145,170.444000244,2496,OC,"New Zealand",NZ,"Canterbury Region",NZ-CAN,CAN,,0,NZTL,,,http://www.airsafaris.co.nz/flights/Tekapo/,,,50,2012-06-06T14:51:36+00:00
30214,NZOM,small_airport,"Omaka Blenheim Airport",-41.540000915527344,173.9219970703125,102,OC,"New Zealand",NZ,"Marlborough Region",NZ-MBH,MBH,Blenheim,0,NZOM,,,,,,50,2009-08-23T20:55:24+00:00
5029,NZFI,small_airport,"Feilding Airport",-40.25579833984375,175.60499572753906,214,OC,"New Zealand",NZ,"Manawatu-Wanganui Region",NZ-MWT,MWT,Feilding,0,NZFI,,,,https://en.wikipedia.org/wiki/Feilding_Aerodrome,,50,2008-06-13T14:30:04+00:00
30320,NZRT,small_airport,"Rangiora Airfield",-43.290000915527344,172.54200744628906,180,OC,"New Zealand",NZ,"Canterbury Region",NZ-CAN,CAN,Rangiora,0,NZRT,,,http://www.rangiora.com/pages/rangiora-airport-and-airfield.php,,,50,2009-05-06T08:40:07+00:00
5030,NZGS,medium_airport,"Gisborne Airport",-38.663299560546875,177.97799682617188,15,OC,"New Zealand",NZ,"Gisborne Region",NZ-GIS,GIS,Gisborne,1,NZGS,GIS,,,https://en.wikipedia.org/wiki/Gisborne_Airport,,750,2009-08-23T20:19:35+00:00
5066,NZWR,medium_airport,"Whangarei Airport",-35.769253,174.363713,133,OC,"New Zealand",NZ,"Northland Region",NZ-NTL,NTL,Whangarei,1,NZWR,WRE,,,https://en.wikipedia.org/wiki/Whangarei_Airport,,750,2022-09-19T13:30:35+00:00
5039,NZMC,medium_airport,"Mount Cook Airport",-43.76499938964844,170.13299560546875,2153,OC,"New Zealand",NZ,"Canterbury Region",NZ-CAN,CAN,,0,NZMC,MON,,,,,250,2008-06-13T14:30:04+00:00
5057,NZUK,medium_airport,"Pukaki Airport",-44.2350006104,170.117996216,1575,OC,"New Zealand",NZ,"Canterbury Region",NZ-CAN,CAN,Twitzel,0,NZUK,TWZ,,,https://en.wikipedia.org/wiki/Pukaki_Airport,,250,2015-08-12T09:04:11+00:00
5061,NZWG,closed,"Wigram Airport",-43.5511016846,172.552993774,74,OC,"New Zealand",NZ,"Canterbury Region",NZ-CAN,CAN,Christchurch,0,,,,,https://en.wikipedia.org/wiki/Wigram_Aerodrome,"NZWG, NZWG",50,2010-06-25T10:48:28+00:00
30192,NZNE,small_airport,"North Shore Aerodrome",-36.656700134277344,174.65499877929688,210,OC,"New Zealand",NZ,"Auckland Region",NZ-AUK,AUK,"Dairy Flat",0,NZNE,,,,https://en.wikipedia.org/wiki/North_Shore_Aerodrome,"Dairy Flat Airfield",50,2009-08-10T07:52:47+00:00
30358,NZRC,small_airport,"Ryan's Creek Aerodrome",-46.8997,168.100998,62,OC,"New Zealand",NZ,"Southland Region",NZ-STL,STL,Oban,0,NZRC,SZS,,,https://en.wikipedia.org/wiki/Ryan%27s_Creek_Aerodrome,"stewart island,rakiura",50,2018-05-18T04:28:35+00:00
5036,NZKK,medium_airport,"Kerikeri Airport",-35.259148,173.913317,492,OC,"New Zealand",NZ,"Northland Region",NZ-NTL,NTL,Kerikeri,1,NZKK,KKE,,http://www.kerikeri-airport.co.nz/,https://en.wikipedia.org/wiki/Kerikeri_Airport,"Bay of Islands Airport",750,2022-09-19T12:45:34+00:00
5068,NZWU,medium_airport,"Wanganui Airport",-39.96220016479492,175.02499389648438,27,OC,"New Zealand",NZ,"Manawatu-Wanganui Region",NZ-MWT,MWT,Wanganui,1,NZWU,WAG,,,https://en.wikipedia.org/wiki/Wanganui_Airport,,750,2009-08-23T21:07:09+00:00
5065,NZWP,medium_airport,"RNZAF Base Auckland-Whenuapai",-36.78779983520508,174.6300048828125,100,OC,"New Zealand",NZ,"Auckland Region",NZ-AUK,AUK,,0,NZWP,,,http://www.airforce.mil.nz/about-us/hq-and-bases/auckland.htm,https://en.wikipedia.org/wiki/RNZAF_Base_Auckland,,500,2008-07-18T11:41:31+00:00
5067,NZWS,medium_airport,"Westport Airport",-41.737111,171.579033,13,OC,"New Zealand",NZ,"West Coast Region",NZ-WTC,WTC,Westport,1,NZWS,WSZ,,,https://en.wikipedia.org/wiki/Westport_Airport_(New_Zealand),,500,2022-09-15T10:03:09+00:00
29672,NZAS,small_airport,"Ashburton Aerodrome",-43.90330123901367,171.7969970703125,302,OC,"New Zealand",NZ,"Canterbury Region",NZ-CAN,CAN,,0,NZAS,ASG,,,https://en.wikipedia.org/wiki/Ashburton_Aerodrome,,50,2008-07-18T11:51:49+00:00
29936,NZHR,small_airport,"Hanmer Springs Airport",-42.55080032348633,172.82699584960938,1109,OC,"New Zealand",NZ,"Canterbury Region",NZ-CAN,CAN,,0,NZHR,,,http://anzfc.inet.net.nz/hanmer.htm,,,50,2008-12-09T06:09:07+00:00
30557,NZWL,small_airport,"West Melton Aerodrome",-43.47669982910156,172.39700317382812,312,OC,"New Zealand",NZ,"Canterbury Region",NZ-CAN,CAN,,0,NZWL,,,,,,50,2008-07-18T10:56:01+00:00
29877,NZFJ,small_airport,"Franz Josef Aerodrome",-43.36309814453125,170.13400268554688,240,OC,"New Zealand",NZ,"West Coast Region",NZ-WTC,WTC,,0,NZFJ,WHO,,,,,50,2008-07-18T10:59:09+00:00
29917,NZGM,small_airport,"Greymouth Airport",-42.461700439453125,171.19000244140625,10,OC,"New Zealand",NZ,"West Coast Region",NZ-WTC,WTC,,0,NZGM,GMN,,,,,50,2008-07-18T11:00:04+00:00
5034,NZHS,small_airport,"Hastings Aerodrome",-39.646702,176.766998,72,OC,"New Zealand",NZ,"Hawke's Bay Region",NZ-HKB,HKB,"Bridge Pa",0,NZHS,,,http://www.hbecac.co.nz/,https://en.wikipedia.org/wiki/Hastings_Aerodrome,,50,2016-09-19T03:48:06+00:00
42727,NZ-0013,small_airport,Culverden,-42.76765060424805,172.8919677734375,597,OC,"New Zealand",NZ,"Canterbury Region",NZ-CAN,CAN,"Hurunui District Council",0,,,,http://anzfc.inet.net.nz/culverden.htm,,,50,2008-12-09T19:41:19+00:00
5062,NZWK,medium_airport,"Whakatane Airport",-37.92060089111328,176.91400146484375,20,OC,"New Zealand",NZ,"Bay of Plenty Region",NZ-BOP,BOP,,1,NZWK,WHK,,,https://en.wikipedia.org/wiki/Whakatane_Airport,,750,2008-06-13T14:30:04+00:00
5040,NZMO,medium_airport,"Manapouri Airport",-45.53310012817383,167.64999389648438,687,OC,"New Zealand",NZ,"Southland Region",NZ-STL,STL,,0,NZMO,TEU,,,,,250,2008-06-13T14:30:04+00:00
30267,NZPN,small_airport,"Picton Aerodrome",-41.346099853516,173.95599365234,161,OC,"New Zealand",NZ,"Marlborough Region",NZ-MBH,MBH,Koromiko,1,NZPN,PCN,,,https://en.wikipedia.org/wiki/Picton_Aerodrome,,100,2015-10-07T01:05:12+00:00
30321,NZRK,small_airport,"Rangitaiki Airfield",-38.88639831542969,176.36399841308594,2323,OC,"New Zealand",NZ,"Bay of Plenty Region",NZ-BOP,BOP,,0,NZRK,,,,,,50,2008-07-18T10:49:30+00:00
29873,NZFF,small_airport,"Forest Field Aerodrome",-43.385799407958984,172.36099243164062,381,OC,"New Zealand",NZ,"Canterbury Region",NZ-CAN,CAN,,0,NZFF,,,,https://en.wikipedia.org/wiki/Forest_Field_Aerodrome,,50,2008-07-18T11:56:05+00:00
30215,NZOA,small_airport,"Omarama Glider Airport",-44.486698150634766,169.98599243164062,1381,OC,"New Zealand",NZ,"Canterbury Region",NZ-CAN,CAN,,0,NZOA,,,,,,50,2008-07-18T10:53:59+00:00
30300,NZPH,small_airport,"Pudding Hill Aerodrome",-43.594200134277344,171.531005859375,1558,OC,"New Zealand",NZ,"Canterbury Region",NZ-CAN,CAN,,0,NZPH,,,,,,50,2008-07-18T10:56:33+00:00
30549,NZYP,small_airport,"Waipukurau Airport",-39.996700286865234,176.53700256347656,430,OC,"New Zealand",NZ,"Hawke's Bay Region",NZ-HKB,HKB,,0,NZYP,,,,,,50,2008-07-18T11:12:16+00:00
29816,NZDV,small_airport,"Dannevirke Aerodrome",-40.22829818725586,176.07899475097656,640,OC,"New Zealand",NZ,"Manawatu-Wanganui Region",NZ-MWT,MWT,,0,NZDV,,,,https://en.wikipedia.org/wiki/Dannevirke_Aerodrome,,50,2008-07-18T11:54:46+00:00
29896,NZGY,small_airport,"Glenorchy Airport",-44.871700286865234,168.3979949951172,1260,OC,"New Zealand",NZ,"Otago Region",NZ-OTA,OTA,,0,NZGY,,,,,,50,2008-07-18T10:44:58+00:00
30107,NZVL,small_airport,"Mandeville Aerodrome",-45.990299224853516,168.81199645996094,351,OC,"New Zealand",NZ,"Southland Region",NZ-STL,STL,,0,NZVL,,,,,,50,2008-07-18T10:38:12+00:00
30475,NZTZ,closed,"Te Anau Airport",-45.462799,167.701004,791,OC,"New Zealand",NZ,"Southland Region",NZ-STL,STL,,0,,,,,https://en.wikipedia.org/wiki/Te_Anau_Aerodrome,NZTZ,50,2022-09-15T13:11:15+00:00
30166,NZMK,small_airport,"Motueka Airport",-41.12329864501953,172.98899841308594,39,OC,"New Zealand",NZ,"Tasman Region",NZ-TAS,TAS,,0,NZMK,MZP,,,,,50,2008-09-15T10:11:13+00:00
30124,NZMA,small_airport,"Matamata Glider Airport",-37.73440170288086,175.74200439453125,180,OC,"New Zealand",NZ,"Waikato Region",NZ-WKO,WKO,,0,NZMA,MTA,,,,,50,2008-07-18T11:20:30+00:00
30250,NZUN,small_airport,"Pauanui Aerodrome",-37.021068,175.863626,20,OC,"New Zealand",NZ,"Waikato Region",NZ-WKO,WKO,Pauanui,0,NZUN,,,,,,50,2022-09-19T14:12:10+00:00
30442,NZSD,small_airport,"Stratford Airport",-39.31890106201172,174.30999755859375,951,OC,"New Zealand",NZ,"Taranaki Region",NZ-TKI,TKI,Stratford,0,NZSD,,,,,,50,2009-08-23T20:05:09+00:00
30477,NZTE,small_airport,"Te Kowhai Airfield",-37.744202,175.160995,49,OC,"New Zealand",NZ,"Waikato Region",NZ-WKO,WKO,"Te Kowhai",0,NZTE,,,,,,50,2021-06-01T18:03:02+00:00
319531,NZGH,heliport,"Glacier Country Heliport",-43.38722,170.18,457,OC,"New Zealand",NZ,"West Coast Region",NZ-WTC,WTC,"Franz Josef Glacier",0,NZGH,,,,,,0,2016-07-16T18:31:38+00:00
44829,NZRL,seaplane_base,"Rotorua Lakes Water Aerodrome",-38.08330154418945,176.26699829101562,,OC,"New Zealand",NZ,"Bay of Plenty Region",NZ-BOP,BOP,"Lake Rotorua",0,NZRL,,,,,,0,2009-08-23T20:50:25+00:00
5037,NZKT,medium_airport,"Kaitaia Airport",-35.069837,173.287053,270,OC,"New Zealand",NZ,"Northland Region",NZ-NTL,NTL,Awanui,1,NZKT,KAT,,,https://en.wikipedia.org/wiki/Kaitaia_Airport,,750,2022-09-19T11:35:04+00:00
5038,NZLX,medium_airport,"Alexandra Aerodrome",-45.210495,169.371113,752,OC,"New Zealand",NZ,"Otago Region",NZ-OTA,OTA,Alexandra,0,NZLX,ALR,,,https://en.wikipedia.org/wiki/Alexandra_Aerodrome,,250,2021-10-14T17:36:50+00:00
5064,NZWO,medium_airport,"Wairoa Airport",-39.006900787353516,177.40699768066406,42,OC,"New Zealand",NZ,"Hawke's Bay Region",NZ-HKB,HKB,Wairoa,0,NZWO,WIR,,,,,250,2009-08-23T19:40:49+00:00
29674,NZHB,closed,"Auckland Hobsonville Airport",-36.791698455811,174.66400146484,59,OC,"New Zealand",NZ,"Auckland Region",NZ-AUK,AUK,,0,,,,,,"NZHB, NZHB",50,2015-09-06T17:07:10+00:00
30547,NZKE,small_airport,"Waiheke Reeve Airport",-36.80889892578125,175.08599853515625,226,OC,"New Zealand",NZ,"Auckland Region",NZ-AUK,AUK,,0,NZKE,WIK,,,,,50,2008-07-18T11:37:09+00:00
29886,NZGA,small_airport,"Galatea Airfield",-38.403900146484375,176.74400329589844,594,OC,"New Zealand",NZ,"Bay of Plenty Region",NZ-BOP,BOP,,0,NZGA,,,,,,50,2008-07-18T10:50:02+00:00
42261,NZ-0001,small_airport,"Mesopotamia Station Airstrip",-43.641170501708984,170.90237426757812,,OC,"New Zealand",NZ,"Canterbury Region",NZ-CAN,CAN,,0,,,,http://www.mesopotamia.co.nz/transport.html,,,50,2008-10-12T00:50:46+00:00
42498,NZ-0002,small_airport,"Arrowsmith Station",-43.46634292602539,171.162353515625,,OC,"New Zealand",NZ,"Canterbury Region",NZ-CAN,CAN,,0,,,,,,,50,2008-11-23T05:24:06+00:00
42500,NZ-0004,small_airport,"Hakatere Airstrip",-43.57743835449219,171.17091369628906,2000,OC,"New Zealand",NZ,"Canterbury Region",NZ-CAN,CAN,,0,,,,,,,50,2008-11-23T05:43:48+00:00
42502,NZ-0006,closed,"Arkwrights Airstrip/Dunsandel (Private)",-43.6785507202,172.117477417,285,OC,"New Zealand",NZ,"Canterbury Region",NZ-CAN,CAN,,0,,,,http://anzfc.inet.net.nz/arkwrights.htm,,,50,2013-05-22T10:37:43+00:00
42503,NZ-0007,small_airport,Dunsandel,-43.68368911743164,172.1490020751953,,OC,"New Zealand",NZ,"Canterbury Region",NZ-CAN,CAN,,0,,,,,,,50,2008-11-23T19:34:44+00:00
42504,NZ-0008,small_airport,"Cattle Creek Airstrip",-44.51150131225586,170.6699981689453,,OC,"New Zealand",NZ,"Canterbury Region",NZ-CAN,CAN,,0,,,,,,,50,2008-11-23T20:20:43+00:00
42725,NZ-0011,small_airport,"Worthy Lodge airstrip (Ladbrooks)",-43.63935089111328,172.52540588378906,20,OC,"New Zealand",NZ,"Canterbury Region",NZ-CAN,CAN,,0,,,,,,"Christchurch, Lincoln",50,2008-12-09T05:53:20+00:00
42726,NZ-0012,small_airport,"Kings (Ladbrooks)",-43.63925552368164,172.53067016601562,20,OC,"New Zealand",NZ,"Canterbury Region",NZ-CAN,CAN,,0,,,,,,,50,2008-12-09T05:56:12+00:00
30351,NZRX,small_airport,"Roxburgh Aerodrome",-45.51169967651367,169.31700134277344,463,OC,"New Zealand",NZ,"Otago Region",NZ-OTA,OTA,,0,NZRX,,,,,,50,2008-07-18T10:42:17+00:00
30463,NZTI,small_airport,"Taieri Airport",-45.86000061035156,170.35800170898438,92,OC,"New Zealand",NZ,"Otago Region",NZ-OTA,OTA,,0,NZTI,,,,,,50,2008-07-18T10:44:08+00:00
42506,NZ-0010,small_airport,"Dingleburn Station Airstrip",-44.4380989074707,169.39100646972656,1000,OC,"New Zealand",NZ,"Otago Region",NZ-OTA,OTA,,0,,,,http://www.dingleburnstation.com/,,,50,2008-12-30T09:27:22+00:00
46372,NZ-0003,small_airport,"Hawea Downs",-44.660900092300004,169.239664078,,OC,"New Zealand",NZ,"Otago Region",NZ-OTA,OTA,,0,,,,,,,50,2010-04-03T05:23:56+00:00
29901,NZGC,small_airport,"Gore3 Airport",-46.156700134277344,168.8979949951172,200,OC,"New Zealand",NZ,"Southland Region",NZ-STL,STL,,0,NZGC,,,,,,50,2008-07-18T10:39:08+00:00
30060,NZLE,small_airport,"Lake Station Airport",-41.75920104980469,172.74600219726562,1709,OC,"New Zealand",NZ,"Tasman Region",NZ-TAS,TAS,,0,NZLE,,,,,,50,2008-09-15T10:18:31+00:00
42501,NZ-0005,small_airport,"Lake Haupiri/Gloriavale Christian Community Airport",-42.6012001038,171.699005127,600,OC,"New Zealand",NZ,"West Coast Region",NZ-WTC,WTC,,0,NZHP,,,,,,50,2013-01-15T01:59:24+00:00
32068,NZAN,small_airport,"Alfredton Airport",-40.69810104370117,175.8560028076172,500,OC,"New Zealand",NZ,"Manawatu-Wanganui Region",NZ-MWT,MWT,Alfredton,0,NZAN,,,,,,50,2008-07-18T11:10:04+00:00
29682,NZBA,small_airport,"Balclutha Aerodrome",-46.245459,169.74864,22,OC,"New Zealand",NZ,"Otago Region",NZ-OTA,OTA,Balclutha,0,NZBA,,,,https://en.wikipedia.org/wiki/Balclutha_Aerodrome,,50,2022-09-15T13:37:12+00:00
42728,NZ-0014,small_airport,"Big Bay Beach Airstrip",-44.294983,168.114944,1,OC,"New Zealand",NZ,"West Coast Region",NZ-WTC,WTC,"Big Bay",0,,,,,,,50,2022-09-14T11:01:04+00:00
29931,NZHT,small_airport,"Haast Aerodrome",-43.865299,169.041,13,OC,"New Zealand",NZ,"West Coast Region",NZ-WTC,WTC,Haast,0,NZHT,,,,,,50,2022-09-14T11:15:27+00:00
29941,NZHA,small_airport,"Hawera Airport",-39.55329895019531,174.26699829101562,371,OC,"New Zealand",NZ,"Taranaki Region",NZ-TKI,TKI,Hawera,0,NZHA,,,,,,50,2009-08-23T20:06:12+00:00
30115,NZMJ,small_airport,"Martins Bay Aerodrome",-44.365971,168.016255,348,OC,"New Zealand",NZ,"Southland Region",NZ-STL,STL,Jamestown,0,NZMJ,,,,,,50,2022-09-14T11:24:03+00:00
30043,NZKY,small_airport,"Kowhai Aerodrome",-39.8461,176.423004,840,OC,"New Zealand",NZ,"Hawke's Bay Region",NZ-HKB,HKB,Kowhai,0,NZKY,,,,,,50,2022-09-19T13:54:08+00:00
32071,NZLT,seaplane_base,"Lake Taupo Water Airport",-38.7317008972168,176.03500366210938,,OC,"New Zealand",NZ,"Waikato Region",NZ-WKO,WKO,"Lake Taupo",0,NZLT,,,,,,50,2008-07-18T11:50:20+00:00
32073,NZMT,small_airport,"Martinborough Airport",-41.21419906616211,175.48599243164062,,OC,"New Zealand",NZ,"Wellington Region",NZ-WGN,WGN,Martinborough,0,NZMT,,,,,,50,2008-07-18T11:08:12+00:00
30173,NZMR,small_airport,"Murchison Airport",-41.79669952392578,172.31500244140625,531,OC,"New Zealand",NZ,"Tasman Region",NZ-TAS,TAS,Murchison,0,NZMR,,,,,,50,2009-08-23T20:52:30+00:00
429831,NZPW,small_airport,"Papawai Airfield",-41.104009,175.500326,128,OC,"New Zealand",NZ,"Wellington Region",NZ-WGN,WGN,Papawai,0,NZPW,,,,,,50,2022-09-15T10:54:58+00:00
30315,NZRA,small_airport,"Raglan Aerodrome",-37.804699,174.860001,10,OC,"New Zealand",NZ,"Waikato Region",NZ-WKO,WKO,Raglan,0,NZRA,RAG,,,,,50,2021-06-01T18:01:57+00:00
32077,NZRI,small_airport,"Rangitata Island Airport",-44.084999084472656,171.41600036621094,288,OC,"New Zealand",NZ,"Canterbury Region",NZ-CAN,CAN,"Rangitata Island",0,NZRI,,,http://www.mothmanor.co.nz/,https://en.wikipedia.org/wiki/Rangitata_Island,,50,2008-11-23T18:48:48+00:00
32078,NZVR,small_airport,"Taihape Airport",-39.685001373291016,175.78900146484375,1550,OC,"New Zealand",NZ,"Manawatu-Wanganui Region",NZ-MWT,MWT,Taihape,0,NZVR,,,,,,50,2008-07-18T11:09:30+00:00
30478,NZTT,small_airport,"Te Kuiti Aerodrome",-38.30351,175.147805,161,OC,"New Zealand",NZ,"Waikato Region",NZ-WKO,WKO,"Te Kuiti",0,NZTT,,,,,,50,2021-06-01T18:01:15+00:00
30560,NZWT,small_airport,"Whitianga Airport",-36.828731,175.682802,10,OC,"New Zealand",NZ,"Waikato Region",NZ-WKO,WKO,Whitianga,0,NZWT,WTZ,,,,,50,2022-09-19T14:11:32+00:00
44818,NZMB,heliport,"Mechanics Bay Heliport",-36.846525628100004,174.787872434,5,OC,"New Zealand",NZ,"Auckland Region",NZ-AUK,AUK,"Auckland City",0,NZMB,MHB,,,,,0,2013-01-17T00:56:55+00:00
308785,NZJH,heliport,"Hastings Hospital Heliport",-39.629236,176.82404,36,OC,"New Zealand",NZ,"Hawke's Bay Region",NZ-HKB,HKB,Hastings,0,NZJH,,,,,,0,2013-05-30T11:56:02+00:00
44822,NZJN,heliport,"North Shore Hospital Heliport",-36.781700134277344,174.75900268554688,70,OC,"New Zealand",NZ,"Auckland Region",NZ-AUK,AUK,"North Shore City",0,NZJN,,,,,,0,2009-08-23T21:07:52+00:00
44828,NZLF,heliport,"Rotorua Lakefront Heliport",-38.129398345947266,176.2530059814453,935,OC,"New Zealand",NZ,"Bay of Plenty Region",NZ-BOP,BOP,Rotorua,0,NZLF,,,,,,0,2009-08-23T21:08:24+00:00
321157,NZ-0024,heliport,"Wairakei Helipad",-38.643244,176.088245,,OC,"New Zealand",NZ,"Waikato Region",NZ-WKO,WKO,Taupo,0,NZHF,,,http://www.helicoptertours.co.nz/,,"Huka Falls",0,2022-09-15T11:35:01+00:00
329325,NZOT,small_airport,"Otaki Airport",-40.785582,175.1513,114,OC,"New Zealand",NZ,"Wellington Region",NZ-WGN,WGN,Otaki,1,NZOT,,,,,,100,2018-09-23T02:14:31+00:00
326631,NZ-0026,small_airport,"Pitt Island Aerodrome",-44.293167,-176.203476,,OC,"New Zealand",NZ,"Wellington Region",NZ-WGN,WGN,"Pitt Island",1,NZPT,,,,https://en.wikipedia.org/wiki/Pitt_Island,,100,2021-10-14T17:33:51+00:00
30002,NZKF,small_airport,"Kaipara Flats Airport",-36.40639877319336,174.58700561523438,112,OC,"New Zealand",NZ,"Auckland Region",NZ-AUK,AUK,,0,NZKF,,,,,,50,2008-07-18T11:34:53+00:00
30208,NZOX,small_airport,"Okiwi Station Airport",-36.146400451660156,175.41900634765625,10,OC,"New Zealand",NZ,"Auckland Region",NZ-AUK,AUK,,0,NZOX,,,,,,50,2008-07-18T11:39:44+00:00
30242,NZPI,small_airport,"Parakai Aerodrome",-36.65190124511719,174.43600463867188,49,OC,"New Zealand",NZ,"Auckland Region",NZ-AUK,AUK,,0,NZPI,,,,,,50,2008-07-18T11:35:17+00:00
30433,NZSL,small_airport,"Springhill Airport",-36.32360076904297,174.55599975585938,102,OC,"New Zealand",NZ,"Auckland Region",NZ-AUK,AUK,,0,NZSL,,,,,,50,2008-07-18T11:34:33+00:00
30556,NZWJ,small_airport,"Wellsford Airport",-36.29690170288086,174.5229949951172,194,OC,"New Zealand",NZ,"Auckland Region",NZ-AUK,AUK,,0,NZWJ,,,,,,50,2008-07-18T11:34:13+00:00
30217,NZOP,small_airport,"Opotiki Airport",-38.022499084472656,177.3070068359375,30,OC,"New Zealand",NZ,"Bay of Plenty Region",NZ-BOP,BOP,,0,NZOP,,,,,,50,2008-07-18T10:47:51+00:00
30546,NZWV,small_airport,"Waihi Beach Airport",-37.43000030517578,175.95199584960938,3,OC,"New Zealand",NZ,"Bay of Plenty Region",NZ-BOP,BOP,,0,NZWV,,,,,,50,2008-07-18T10:51:46+00:00
42505,NZ-0009,small_airport,"Manuka Point Lodge Airstrip",-43.274559020996094,171.21755981445312,1800,OC,"New Zealand",NZ,"Canterbury Region",NZ-CAN,CAN,,0,,,,http://www.manukapoint.com,,,50,2008-11-23T19:48:11+00:00
43198,NZ-0016,small_airport,"Cape Campbell airstrip",-41.74589920043945,174.27200317382812,,OC,"New Zealand",NZ,"Marlborough Region",NZ-MBH,MBH,,0,,,,,https://en.wikipedia.org/wiki/Cape_Campbell,,50,2009-01-29T06:36:03+00:00
5053,NZRU,small_airport,"Waiouru Airport",-39.4463996887207,175.6580047607422,2686,OC,"New Zealand",NZ,"Manawatu-Wanganui Region",NZ-MWT,MWT,,0,NZRU,,,,https://en.wikipedia.org/wiki/Waiouru_Army_Camp,,50,2008-06-13T14:30:04+00:00
29876,NZFP,small_airport,"Foxpine Aerodrome",-40.45669937133789,175.27000427246094,39,OC,"New Zealand",NZ,"Manawatu-Wanganui Region",NZ-MWT,MWT,,0,NZFP,,,,,,50,2008-07-18T11:09:09+00:00
30473,NZTM,small_airport,"Taumarunui Airport",-38.83940124511719,175.26199340820312,902,OC,"New Zealand",NZ,"Manawatu-Wanganui Region",NZ-MWT,MWT,,0,NZTM,,,,,,50,2008-07-18T11:28:35+00:00
29817,NZDA,small_airport,"Dargaville Aerodrome",-35.939701080322266,173.8939971923828,10,OC,"New Zealand",NZ,"Northland Region",NZ-NTL,NTL,,0,NZDA,DGR,,,https://en.wikipedia.org/wiki/Dargaville_Aerodrome,,50,2008-07-18T11:55:20+00:00
30108,NZMG,heliport,"Mangonui Heliport",-34.995601654052734,173.46400451660156,3,OC,"New Zealand",NZ,"Northland Region",NZ-NTL,NTL,,0,NZMG,,,,,,50,2008-07-18T11:29:15+00:00
30232,NZPA,small_airport,"Paihia Private Airport",-35.28219985961914,174.09100341796875,20,OC,"New Zealand",NZ,"Northland Region",NZ-NTL,NTL,,0,NZPA,,,,,,50,2008-07-18T11:29:58+00:00
30352,NZRW,small_airport,"Ruawai Aerodrome",-36.097198486328125,173.9770050048828,62,OC,"New Zealand",NZ,"Northland Region",NZ-NTL,NTL,,0,NZRW,,,,,,50,2008-07-18T11:33:21+00:00
29810,NZCS,small_airport,"Cromwell Racecourse Aerodrome",-45.04859924316406,169.17100524902344,856,OC,"New Zealand",NZ,"Otago Region",NZ-OTA,OTA,,0,NZCS,,,,https://en.wikipedia.org/wiki/Cromwell_Racecourse_Aerodrome,,50,2008-07-18T11:54:08+00:00
30102,NZMW,small_airport,"Makarora Airstrip",-44.2317008972168,169.22999572753906,1142,OC,"New Zealand",NZ,"Otago Region",NZ-OTA,OTA,,0,NZMW,,,,,,50,2008-07-18T10:45:38+00:00
314997,NZ-0021,small_airport,"Glenshe Airstrip",-45.0419,170.2403,1637,OC,"New Zealand",NZ,"Otago Region",NZ-OTA,OTA,,0,,,,,,,50,2015-07-17T03:02:09+00:00
30464,NZTK,small_airport,"Takaka Airport",-40.81330108642578,172.77499389648438,102,OC,"New Zealand",NZ,"Tasman Region",NZ-TAS,TAS,,0,NZTK,KTF,,,,,50,2008-09-15T10:18:10+00:00
29804,NZCX,small_airport,"Coromandel Aerodrome",-36.79169845581055,175.50900268554688,10,OC,"New Zealand",NZ,"Waikato Region",NZ-WKO,WKO,,0,NZCX,CMV,,,https://en.wikipedia.org/wiki/Coromandel_Aerodrome,,50,2008-07-18T11:53:31+00:00
30021,NZKC,small_airport,"Kelly Field",-37.256099700927734,175.07200622558594,52,OC,"New Zealand",NZ,"Waikato Region",NZ-WKO,WKO,,0,NZKC,,,,,,50,2008-07-18T11:17:19+00:00
30132,NZME,small_airport,"Mercer1 PDZ Airport",-37.25749969482422,175.11500549316406,30,OC,"New Zealand",NZ,"Waikato Region",NZ-WKO,WKO,,0,NZME,,,,,,50,2008-07-18T11:22:12+00:00
30476,NZTA,small_airport,"Te Aroha Airfield",-37.474700927734375,175.6179962158203,30,OC,"New Zealand",NZ,"Waikato Region",NZ-WKO,WKO,,0,NZTA,,,,,,50,2008-07-18T11:21:01+00:00
30483,NZTH,small_airport,"Thames Aerodrome",-37.156700134277344,175.5500030517578,10,OC,"New Zealand",NZ,"Waikato Region",NZ-WKO,WKO,,0,NZTH,TMZ,,,,,50,2008-07-18T11:26:07+00:00
30498,NZTN,small_airport,"Turangi Airport",-38.968299865722656,175.81399536132812,1220,OC,"New Zealand",NZ,"Waikato Region",NZ-WKO,WKO,,0,NZTN,,,,,,50,2008-07-18T11:15:08+00:00
30559,NZES,small_airport,"Wharepapa South Airport",-38.14830017089844,175.5500030517578,443,OC,"New Zealand",NZ,"Waikato Region",NZ-WKO,WKO,,0,NZES,,,,,,50,2008-07-18T11:19:30+00:00
30010,NZKM,small_airport,"Karamea Airport",-41.236698150634766,172.10499572753906,30,OC,"New Zealand",NZ,"West Coast Region",NZ-WTC,WTC,,0,NZKM,,,,,,50,2008-07-18T11:00:51+00:00
429917,NZ-0045,small_airport,"Sandhills Airstrip",-35.05828,173.21385,85,OC,"New Zealand",NZ,"Northland Region",NZ-NTL,NTL,Awanui,0,,,,,,,50,2022-09-19T11:29:37+00:00
429924,NZ-0052,small_airport,"Broadwood Airstrip",-35.25414,173.37782,413,OC,"New Zealand",NZ,"Northland Region",NZ-NTL,NTL,Broadwood,0,,,,,,,50,2022-09-19T12:13:17+00:00
429925,NZ-0053,small_airport,"Pukemiro Airstrip",-35.24984,173.35164,599,OC,"New Zealand",NZ,"Northland Region",NZ-NTL,NTL,Broadwood,0,,,,,,,50,2022-09-19T12:14:14+00:00
429926,NZ-0054,small_airport,"Wairapakuru Airstrip",-35.25494,173.44751,640,OC,"New Zealand",NZ,"Northland Region",NZ-NTL,NTL,Broadwood,0,,,,,,,50,2022-09-19T12:15:55+00:00
429927,NZ-0055,small_airport,"Ngatieke Airstrip",-35.26833,173.4582,774,OC,"New Zealand",NZ,"Northland Region",NZ-NTL,NTL,Broadwood,0,,,,,,,50,2022-09-19T12:17:15+00:00
429929,NZ-0057,small_airport,"Paponga Airstrip",-35.290158,173.424514,723,OC,"New Zealand",NZ,"Northland Region",NZ-NTL,NTL,Broadwood,0,,,,,,,50,2022-09-19T12:20:42+00:00
429930,NZ-0058,small_airport,"Pawarenga Road Airstrip",-35.29625,173.36919,367,OC,"New Zealand",NZ,"Northland Region",NZ-NTL,NTL,Broadwood,0,,,,,,,50,2022-09-19T12:24:24+00:00
429931,NZ-0059,small_airport,"Runaruna Airstrip",-35.32377,173.33705,410,OC,"New Zealand",NZ,"Northland Region",NZ-NTL,NTL,Broadwood,0,,,,,,,50,2022-09-19T12:22:38+00:00
29767,NZCB,small_airport,"Centre Bush Aerodrome",-46.040000915527344,168.31199645996094,255,OC,"New Zealand",NZ,"Southland Region",NZ-STL,STL,"Centre Bush",0,NZCB,,,,,,50,2009-08-10T14:10:23+00:00
29913,NZGB,small_airport,"Great Barrier Aerodrome",-36.24140167236328,175.4720001220703,20,OC,"New Zealand",NZ,"Auckland Region",NZ-AUK,AUK,Claris,0,NZGB,GBZ,,,https://en.wikipedia.org/wiki/Great_Barrier_Aerodrome,,50,2008-07-18T11:39:25+00:00
315006,NZ-0022,small_airport,"Cromwell/Louburn Airport",-44.982756,169.215696,1010,OC,"New Zealand",NZ,"Otago Region",NZ-OTA,OTA,Cromwell,0,NZCW,,,,,"Mount Pisa",50,2022-09-15T14:15:49+00:00
29870,NZFT,small_airport,"Flat Point Aerodrome",-41.243385,175.960228,46,OC,"New Zealand",NZ,"Wellington Region",NZ-WGN,WGN,"Flat Point",0,NZFT,,,,,,50,2022-09-19T13:52:41+00:00
429815,NZ-0029,small_airport,"Fox Glacier Aerodrome",-43.46111,170.01702,,OC,"New Zealand",NZ,"West Coast Region",NZ-WTC,WTC,"Fox Glacier",0,NZFO,FGL,,,https://en.wikipedia.org/wiki/Fox_Glacier_Aerodrome,,50,2022-09-15T10:24:27+00:00
429825,NZ-0038,small_airport,"Cook Flat Airstrip",-43.45774,169.93639,,OC,"New Zealand",NZ,"West Coast Region",NZ-WTC,WTC,"Fox Glacier",0,,,,,,,50,2022-09-14T14:15:20+00:00
29918,NZGR,small_airport,"Great Mercury Airport",-36.593635,175.764598,180,OC,"New Zealand",NZ,"Waikato Region",NZ-WKO,WKO,"Great Mercury Island / Ahuahu",0,NZGR,,,,,,50,2022-09-19T14:10:51+00:00
46489,NZ-0018,small_airport,"Gorge River Airstrip",-44.184574,168.192444,,OC,"New Zealand",NZ,"West Coast Region",NZ-WTC,WTC,Haast,0,,,,,,,50,2022-09-14T11:03:01+00:00
429956,NZ-0084,small_airport,"Waro Airstrip",-35.580692,174.274725,,OC,"New Zealand",NZ,"Northland Region",NZ-NTL,NTL,Hikurangi,0,,,,,,,50,2022-09-19T13:29:49+00:00
429937,NZ-0065,small_airport,"Rangiahua Airstrip",-35.315655,173.649822,,OC,"New Zealand",NZ,"Northland Region",NZ-NTL,NTL,Horeke,0,,,,,,,50,2022-09-19T12:31:38+00:00
429915,NZ-0043,small_airport,"Waihopo Airstrip",-34.77493,173.09582,10,OC,"New Zealand",NZ,"Northland Region",NZ-NTL,NTL,Houhora,0,,,,,,,50,2022-09-19T11:19:27+00:00
429916,NZ-0044,small_airport,"Houhora North Airstrip",-34.76675,173.11199,180,OC,"New Zealand",NZ,"Northland Region",NZ-NTL,NTL,Houhora,0,,,,,,,50,2022-09-19T11:21:45+00:00
429951,NZ-0079,small_airport,"Ruapekapeka Airstrip",-35.4657,174.16772,,OC,"New Zealand",NZ,"Northland Region",NZ-NTL,NTL,Hūkerenui,0,,,,,,,50,2022-09-19T13:19:21+00:00
429952,NZ-0080,small_airport,"Koheroa Airstrip",-35.46497,174.18424,,OC,"New Zealand",NZ,"Northland Region",NZ-NTL,NTL,Hūkerenui,0,,,,,,,50,2022-09-19T13:19:11+00:00
429841,NZNF,small_airport,"Norfolk Airport",-39.205122,174.222565,875,OC,"New Zealand",NZ,"Taranaki Region",NZ-TKI,TKI,Inglewood,0,NZNF,,,,,,50,2022-09-15T12:34:46+00:00
429816,NZ-0030,small_airport,"Jackson Bay Aerodrome",-43.91599,168.88258,,OC,"New Zealand",NZ,"West Coast Region",NZ-WTC,WTC,"Jackson Bay",0,,,,,,,50,2022-09-14T11:17:59+00:00
429817,NZ-0031,small_airport,"Cascade Lagoon Airstrip",-44.02742,168.37023,,OC,"New Zealand",NZ,"West Coast Region",NZ-WTC,WTC,"Jackson Bay",0,,,,,,,50,2022-09-14T11:19:08+00:00
429818,NZ-0032,small_airport,"Hope River Airstrip",-44.08595,168.3253,,OC,"New Zealand",NZ,"West Coast Region",NZ-WTC,WTC,"Jackson Bay",0,,,,,,,50,2022-09-14T11:20:01+00:00
429821,NZ-0035,small_airport,"Cascade Station Airstrip",-44.09453,168.5187,,OC,"New Zealand",NZ,"West Coast Region",NZ-WTC,WTC,"Jackson Bay",0,,,,,,,50,2022-09-14T11:38:10+00:00
429819,NZ-0033,small_airport,"Hollyford River Aerodrome",-44.36083,168.00876,,OC,"New Zealand",NZ,"Southland Region",NZ-STL,STL,Jamestown,0,,,,,,,50,2022-09-14T11:29:21+00:00
30000,NZKO,small_airport,"Kaikohe Airport",-35.451099,173.817001,571,OC,"New Zealand",NZ,"Northland Region",NZ-NTL,NTL,Kaikohe,0,NZKO,KKO,,,,,50,2022-09-19T12:49:59+00:00
429941,NZ-0069,small_airport,"Omapere Airstrip",-35.388037,173.785613,,OC,"New Zealand",NZ,"Northland Region",NZ-NTL,NTL,Kaikohe,0,,,,,,,50,2022-09-19T12:51:14+00:00
429942,NZ-0070,small_airport,"Remuera Settlement Airstrip",-35.37404,173.82952,,OC,"New Zealand",NZ,"Northland Region",NZ-NTL,NTL,Kaikohe,0,,,,,,,50,2022-09-19T12:52:14+00:00
44819,NZKD,small_airport,"Motu Kaikoura Island Aerodrome",-36.1781005859375,175.32400512695312,400,OC,"New Zealand",NZ,"Auckland Region",NZ-AUK,AUK,"Kaikoura Island",0,NZKD,,,,,,50,2009-08-23T20:36:51+00:00
429918,NZ-0046,small_airport,"Puriri Block Airstrip",-35.06246,173.33653,482,OC,"New Zealand",NZ,"Northland Region",NZ-NTL,NTL,Kaingaroa,0,,,,,,,50,2022-09-19T11:42:31+00:00
429919,NZ-0047,small_airport,"Fisher Riley North Airstrip",-35.07869,173.36623,481,OC,"New Zealand",NZ,"Northland Region",NZ-NTL,NTL,Kaitaia,0,,,,,,,50,2022-09-19T11:50:38+00:00
429920,NZ-0048,small_airport,"Fisher Riley South Airstrip",-35.10338,173.36966,340,OC,"New Zealand",NZ,"Northland Region",NZ-NTL,NTL,Kaitaia,0,,,,,,,50,2022-09-19T11:51:16+00:00
429921,NZ-0049,small_airport,"Pamapuria Airstrip",-35.13336,173.36834,302,OC,"New Zealand",NZ,"Northland Region",NZ-NTL,NTL,Kaitaia,0,,,,,,,50,2022-09-19T11:55:34+00:00
429922,NZ-0050,small_airport,"Te Rore Airstrip",-35.1806,173.37799,978,OC,"New Zealand",NZ,"Northland Region",NZ-NTL,NTL,Kaitaia,0,,,,,,,50,2022-09-19T11:57:00+00:00
429923,NZ-0051,small_airport,"Takahue Airstrip",-35.21042,173.34838,497,OC,"New Zealand",NZ,"Northland Region",NZ-NTL,NTL,Kaitaia,0,,,,,,,50,2022-09-19T11:58:08+00:00
429822,NZ-0036,small_airport,"Karangarua River Airstrip",-43.567869,169.785172,,OC,"New Zealand",NZ,"West Coast Region",NZ-WTC,WTC,Karangarua,0,,,,,,,50,2022-09-14T11:41:03+00:00
429948,NZ-0076,small_airport,"Toots Airstrip",-35.38188,174.09782,,OC,"New Zealand",NZ,"Northland Region",NZ-NTL,NTL,Kawakawa,0,,,,,,,50,2022-09-19T13:08:36+00:00
326632,NZ-0027,small_airport,"Raoul Island Airstrip",-29.243879,-177.936544,,OC,"New Zealand",NZ,"(Area Outside Territorial Authority)",NZ-XX,XX,"Kermadec Islands",0,,,,,https://en.wikipedia.org/wiki/Kermadec_Islands#Raoul_Island_Station,,50,2022-09-19T14:16:38+00:00
429928,NZ-0056,small_airport,"Ahu Airstrip",-35.29343,173.46148,479,OC,"New Zealand",NZ,"Northland Region",NZ-NTL,NTL,Kohukohu,0,,,,,,,50,2022-09-19T12:18:48+00:00
32070,NZLD,small_airport,"Limestone Downs Airport",-37.47999954223633,174.7449951171875,596,OC,"New Zealand",NZ,"Waikato Region",NZ-WKO,WKO,"Limestone Downs",0,NZLD,,,,,,50,2008-07-18T11:18:42+00:00
429933,NZ-0061,small_airport,"Mangamuka Bridge Airstrip",-35.24734,173.5394,371,OC,"New Zealand",NZ,"Northland Region",NZ-NTL,NTL,Mangamuka,0,,,,,,,50,2022-09-19T12:25:33+00:00
429949,NZ-0077,small_airport,"Waitotehoanga Airstrip",-35.46282,174.09264,,OC,"New Zealand",NZ,"Northland Region",NZ-NTL,NTL,Maromaku,0,,,,,,,50,2022-09-19T13:14:12+00:00
429950,NZ-0078,small_airport,"Maromaku West Airstrip",-35.46502,174.0892,,OC,"New Zealand",NZ,"Northland Region",NZ-NTL,NTL,Maromaku,0,,,,,,,50,2022-09-19T13:19:29+00:00
32074,NZMZ,small_airport,"Matakana Island Airport",-37.599998474121094,176.08299255371094,95,OC,"New Zealand",NZ,"Bay of Plenty Region",NZ-BOP,BOP,"Matakana Island",0,NZMZ,,,,,,50,2008-07-18T10:52:12+00:00
30123,NZAG,closed,"Matarangi Airport",-36.731701,175.649994,10,OC,"New Zealand",NZ,"Waikato Region",NZ-WKO,WKO,Matarangi,0,,,,,,NZAG,50,2022-09-19T14:11:14+00:00
429820,NZ-0034,small_airport,"Hollyford Airstrip",-44.7369,168.13302,,OC,"New Zealand",NZ,"Southland Region",NZ-STL,STL,"Milford Sound",0,,,,,,,50,2022-09-14T11:31:20+00:00
32072,NZML,small_airport,"Molesworth Airport",-42.08300018310547,173.2830047607422,2813,OC,"New Zealand",NZ,"Marlborough Region",NZ-MBH,MBH,Molesworth,0,NZML,,,,,,50,2008-07-18T11:05:25+00:00
32075,NZOI,small_airport,"Motiti Island Airport",-37.632999420166016,176.41700744628906,135,OC,"New Zealand",NZ,"Bay of Plenty Region",NZ-BOP,BOP,"Motiti Island",0,NZOI,,,,,,50,2008-07-18T10:51:02+00:00
32067,NZAE,small_airport,"Mount Tarawera Airport",-38.233001708984375,176.51699829101562,3100,OC,"New Zealand",NZ,"Bay of Plenty Region",NZ-BOP,BOP,"Mount Tarawera",0,NZAE,,,,,,50,2008-07-18T10:50:28+00:00
43201,NZ-0017,small_airport,"Neils Beach Aerodrome",-43.997523,168.661659,,OC,"New Zealand",NZ,"West Coast Region",NZ-WTC,WTC,"Neils Beach",0,,,,,,,50,2022-09-14T11:17:11+00:00
429913,NZ-0041,small_airport,"Rarawa Airport",-34.70214,173.02269,171,OC,"New Zealand",NZ,"Northland Region",NZ-NTL,NTL,Ngataki,0,,,,,,,50,2022-09-19T11:17:26+00:00
429914,NZ-0042,small_airport,"Ngataki Airport",-34.76319,173.05531,194,OC,"New Zealand",NZ,"Northland Region",NZ-NTL,NTL,Ngataki,0,,,,,,,50,2022-09-19T11:16:57+00:00
30204,NZMQ,heliport,"Oaonui Heliport",-39.39984130859375,173.8098602294922,112,OC,"New Zealand",NZ,"Taranaki Region",NZ-TKI,TKI,Oaonui,0,NZMQ,,,,,,50,2009-08-23T20:08:11+00:00
429938,NZ-0066,small_airport,"Waimaho Airstrip",-35.331852,173.698932,,OC,"New Zealand",NZ,"Northland Region",NZ-NTL,NTL,Ōkaihau,0,,,,,,,50,2022-09-19T12:32:33+00:00
429940,NZ-0068,small_airport,"Waihou Valley Airstrip",-35.29749,173.73129,,OC,"New Zealand",NZ,"Northland Region",NZ-NTL,NTL,Ōkaihau,0,,,,,,,50,2022-09-19T12:36:08+00:00
429944,NZ-0072,small_airport,"Pouerua Airstrip",-35.370921,173.938174,,OC,"New Zealand",NZ,"Northland Region",NZ-NTL,NTL,Pakaraka,0,,,,,,,50,2022-09-19T12:56:20+00:00
429945,NZ-0073,small_airport,"Waiaruhe Airstrip",-35.35806,173.91905,,OC,"New Zealand",NZ,"Northland Region",NZ-NTL,NTL,Pakaraka,0,,,,,,,50,2022-09-19T12:57:37+00:00
429947,NZ-0075,small_airport,"Te Kene Airstrip",-35.338778,173.977186,,OC,"New Zealand",NZ,"Northland Region",NZ-NTL,NTL,Pakaraka,0,,,,,,,50,2022-09-19T13:00:18+00:00
429824,NZ-0037,small_airport,"Paringa Airstrip",-43.7131,169.47975,,OC,"New Zealand",NZ,"West Coast Region",NZ-WTC,WTC,Paringa,0,,,,,,,50,2022-09-14T14:13:01+00:00
429932,NZ-0060,small_airport,"Kohe Airstrip",-35.31355,173.29435,349,OC,"New Zealand",NZ,"Northland Region",NZ-NTL,NTL,Pawarenga,0,,,,,,,50,2022-09-19T12:23:21+00:00
32076,NZPK,closed,"Pikes Point Airport",-36.9282989502,174.81199646,,OC,"New Zealand",NZ,"Auckland Region",NZ-AUK,AUK,"Pikes Point",0,,,,,,"NZPK, NZPK",50,2013-08-06T15:26:16+00:00
30280,NZPO,small_airport,"Pōrangahau Aerodrome",-40.279264,176.6502,200,OC,"New Zealand",NZ,"Hawke's Bay Region",NZ-HKB,HKB,Pōrangahau,0,NZPO,,,,,,50,2022-09-19T13:53:43+00:00
314996,NZ-0020,small_airport,"Center Island Airstrip",-46.4549,167.8495,30,OC,"New Zealand",NZ,"Southland Region",NZ-STL,STL,"Raratoka Island",0,,,,,,,50,2015-07-16T23:49:33+00:00
30462,NZTS,small_airport,"Taharoa Aerodrome",-38.18109893798828,174.70799255371094,69,OC,"New Zealand",NZ,"Waikato Region",NZ-WKO,WKO,Taharoa,0,NZTS,THH,,,,,50,2009-08-23T21:12:45+00:00
43024,NZ-0015,small_airport,"Taitapu Ag strip",-43.67060089111328,172.58999633789062,,OC,"New Zealand",NZ,"Canterbury Region",NZ-CAN,CAN,Taitapu,0,,,,,,,50,2009-01-12T09:47:43+00:00
355373,NZCG,small_airport,"Centennial Park Aerodrome",-38.665278,176.134722,1506,OC,"New Zealand",NZ,"Waikato Region",NZ-WKO,WKO,Taupo,0,NZCG,,,,,,50,2022-06-30T06:53:29+00:00
429910,NZ-0039,small_airport,"Te Paki Airport",-34.49023,172.76732,595,OC,"New Zealand",NZ,"Northland Region",NZ-NTL,NTL,"Te Kao",0,,,,,,,50,2022-09-19T11:12:34+00:00
429911,NZWQ,small_airport,"Waitiki Aerodrome",-34.52782,172.83805,190,OC,"New Zealand",NZ,"Northland Region",NZ-NTL,NTL,"Te Kao",0,NZWQ,,,,,,50,2022-09-19T11:06:27+00:00
30489,NZTO,small_airport,"Tokoroa Airfield",-38.236698150634766,175.89199829101562,1220,OC,"New Zealand",NZ,"Waikato Region",NZ-WKO,WKO,Tokoroa,0,NZTO,TKZ,,,,,50,2009-08-23T19:49:45+00:00
429934,NZ-0062,small_airport,"Rotokoma Airstrip",-35.26083,173.56304,,OC,"New Zealand",NZ,"Northland Region",NZ-NTL,NTL,Umawera,0,,,,,,,50,2022-09-19T12:26:59+00:00
429935,NZ-0063,small_airport,"Kahikatoa Airstrip",-35.28273,173.5509,,OC,"New Zealand",NZ,"Northland Region",NZ-NTL,NTL,Umawera,0,,,,,,,50,2022-09-19T12:27:34+00:00
429936,NZ-0064,small_airport,"Umawera Airstrip",-35.28507,173.59184,,OC,"New Zealand",NZ,"Northland Region",NZ-NTL,NTL,Umawera,0,,,,,,,50,2022-09-19T12:28:01+00:00
30548,NZWM,small_airport,"Waimate Airport",-44.790343,171.090087,79,OC,"New Zealand",NZ,"Canterbury Region",NZ-CAN,CAN,Waimate,0,NZWM,,,,,,50,2021-10-14T17:18:10+00:00
429943,NZ-0071,small_airport,"Maungaparenua Airstrip",-35.21926,173.87409,,OC,"New Zealand",NZ,"Northland Region",NZ-NTL,NTL,Waipapa,0,,,,,,,50,2022-09-19T12:53:09+00:00
429957,NZ-0085,small_airport,"Tahere Airstrip",-35.69626,174.43641,,OC,"New Zealand",NZ,"Northland Region",NZ-NTL,NTL,Whareora,0,,,,,,,50,2022-09-19T13:31:52+00:00
44670,NZBC,heliport,"ASB Bank Centre Heliport",-36.84989929199219,174.76199340820312,468,OC,"New Zealand",NZ,"Auckland Region",NZ-AUK,AUK,Aukland,0,NZBC,,,,,,0,2009-08-10T08:55:45+00:00
44671,NZJL,heliport,"Aukland Hospital Helipad",-36.85919952392578,174.7689971923828,204,OC,"New Zealand",NZ,"Auckland Region",NZ-AUK,AUK,Aukland,0,NZJL,,,,,,0,2009-08-10T08:56:35+00:00
315020,NZ-0023,heliport,"Middlemore Hospital Helipad",-36.9632,174.8452,10,OC,"New Zealand",NZ,"Auckland Region",NZ-AUK,AUK,Aukland,0,,,,,,,0,2015-07-19T12:00:43+00:00
44841,NZJB,heliport,"Wairau Hospital Heliport",-41.53689956665039,173.94400024414062,100,OC,"New Zealand",NZ,"Marlborough Region",NZ-MBH,MBH,Blenheim,0,NZJB,,,,,,0,2009-08-23T20:55:39+00:00
44678,NZBW,heliport,"Burwood Hospital Heliport",-43.479698181152344,172.68699645996094,16,OC,"New Zealand",NZ,"Canterbury Region",NZ-CAN,CAN,Christchurch,0,NZBW,,,,,,0,2009-08-10T14:02:42+00:00
44802,NZJC,heliport,"Christchurch Hospital Heliport",-43.53670120239258,172.6219940185547,55,OC,"New Zealand",NZ,"Canterbury Region",NZ-CAN,CAN,Christchurch,0,NZJC,,,,,,0,2009-08-23T20:44:11+00:00
44808,NZGI,heliport,"Garden City Heliport",-43.49330139160156,172.54800415039062,89,OC,"New Zealand",NZ,"Canterbury Region",NZ-CAN,CAN,Christchurch,0,NZGI,,,,,,0,2009-08-23T20:46:59+00:00
429844,NZDU,heliport,"Dunstan Hospital Heliport",-45.20092,169.331669,554,OC,"New Zealand",NZ,"Otago Region",NZ-OTA,OTA,Clyde,0,NZDU,,,,,,0,2022-09-15T14:40:20+00:00
44803,NZJE,heliport,"Dargaville Hospital Heliport",-35.92890167236328,173.87600708007812,102,OC,"New Zealand",NZ,"Northland Region",NZ-NTL,NTL,Dargaville,0,NZJE,,,,,,0,2009-08-23T20:42:16+00:00
44804,NZDC,heliport,"Dunedin City Heliport",-45.882596,170.507947,5,OC,"New Zealand",NZ,"Otago Region",NZ-OTA,OTA,Dunedin,0,NZDC,,,,,,0,2022-09-15T13:52:08+00:00
44805,NZDH,heliport,"Dunedin Hospital Helipad",-45.868871,170.509674,159,OC,"New Zealand",NZ,"Otago Region",NZ-OTA,OTA,Dunedin,0,NZDH,,,,,,0,2022-09-15T14:03:11+00:00
355372,NZEV,heliport,"Eves Valley Heliport",-41.339923,173.077329,126,OC,"New Zealand",NZ,"Nelson Region",NZ-NSN,NSN,"Eves Valley",0,NZEV,,,,,,0,2022-06-30T06:17:36+00:00
44807,NZFH,heliport,"Fox Heliport",-43.4631,170,,OC,"New Zealand",NZ,"West Coast Region",NZ-WTC,WTC,Fox,0,NZFH,,,,,FGL,0,2019-03-22T13:02:41+00:00
319530,NZFR,heliport,"Franz Josef Heliport",-43.37657,170.19396,434,OC,"New Zealand",NZ,"West Coast Region",NZ-WTC,WTC,"Franz Josef Glacier",0,NZFR,,,,,,0,2016-07-16T18:12:56+00:00
44809,NZJG,heliport,"Gisborne Hospital Heliport",-38.6411018371582,178.00399780273438,51,OC,"New Zealand",NZ,"Gisborne Region",NZ-GIS,GIS,Gisborne,0,NZJG,,,,,,0,2009-08-23T20:47:18+00:00
429814,NZ-0025,closed,"Gorge Creek Airstrip",-44.20799,168.30895,,OC,"New Zealand",NZ,"West Coast Region",NZ-WTC,WTC,Haast,0,,,,,,,0,2022-09-14T11:02:48+00:00
308629,NZ-0019,heliport,"Jennian Hangar, Waikato Hospital Heliport",-37.806281,175.280897,,OC,"New Zealand",NZ,"Waikato Region",NZ-WKO,WKO,Hamilton,0,NZHH,,,,,,0,2014-10-06T10:29:20+00:00
44830,NZJS,heliport,"Southland - Kew Hospital Heliport",-46.437198638916016,168.35899353027344,29,OC,"New Zealand",NZ,"Southland Region",NZ-STL,STL,Invercargill,0,NZJS,,,,,,0,2009-08-23T20:51:12+00:00
44810,NZJK,heliport,"Kaitaia Hospital Heliport",-35.11830139160156,173.26100158691406,100,OC,"New Zealand",NZ,"Northland Region",NZ-NTL,NTL,Kaitaia,0,NZJK,,,,,,0,2009-08-23T20:38:15+00:00
44673,NZJI,heliport,"Bay of Islands Hospital Heliport",-35.385833740234375,174.07028198242188,200,OC,"New Zealand",NZ,"Northland Region",NZ-NTL,NTL,Kawakawa,0,NZJI,,,,,,0,2009-08-10T09:13:01+00:00
44813,NZKU,heliport,"Kupe Helipad",-39.799999,174.117004,100,OC,"New Zealand",NZ,"(Oil platforms)",NZ-XY,XY,"Kupe Platform",0,NZKU,,,,,,0,2022-10-23T20:06:47+00:00
44814,NZMX,heliport,"Maari Heliport",-39.974998,173.292007,60,OC,"New Zealand",NZ,"(Oil platforms)",NZ-XY,XY,"Maari Platform",0,NZMX,,,,,,0,2022-10-23T20:07:06+00:00
429843,NZOG,heliport,"Makarora Heliport",-44.233204,169.230083,990,OC,"New Zealand",NZ,"Otago Region",NZ-OTA,OTA,Makarora,0,NZOG,,,,,,0,2022-09-15T14:29:32+00:00
44815,NZSO,seaplane_base,"Marlborough Sounds Water Aerodrome",-41.0088996887207,174.08900451660156,,OC,"New Zealand",NZ,"Marlborough Region",NZ-MBH,MBH,"Malborough Sounds",0,NZSO,,,,,,0,2009-08-23T20:53:58+00:00
44840,NZMH,heliport,"Wairarapa Hospital Heliport",-40.9474983215332,175.6750030517578,367,OC,"New Zealand",NZ,"Wellington Region",NZ-WGN,WGN,Masterton,0,NZMH,,,,,,0,2009-08-23T21:05:36+00:00
44816,NZUA,heliport,"Maui A Heliport",-39.5583,173.449997,157,OC,"New Zealand",NZ,"(Oil platforms)",NZ-XY,XY,"Maui A Platform",0,NZUA,,,,,,0,2022-10-23T20:07:47+00:00
44817,NZUB,heliport,"Maui B Heliport",-39.650002,173.307999,114,OC,"New Zealand",NZ,"(Oil platforms)",NZ-XY,XY,"Maui B Platform",0,NZUB,,,,,,0,2022-10-23T20:07:24+00:00
44820,NZUR,heliport,"Murchison Hospital Heliport",-41.806525,172.328158,573,OC,"New Zealand",NZ,"Tasman Region",NZ-TAS,TAS,Murchison,0,NZUR,,,,,,0,2022-09-15T11:49:47+00:00
44821,NZNH,heliport,"Nelson Hospital Heliport",-41.288299560546875,173.27200317382812,180,OC,"New Zealand",NZ,"Nelson Region",NZ-NSN,NSN,Nelson,0,NZNH,,,,,,0,2009-08-23T20:54:33+00:00
44832,NZJQ,heliport,"Taranaki Base Hospital Heliport",-39.07292,174.054787,104,OC,"New Zealand",NZ,"Taranaki Region",NZ-TKI,TKI,"New Plymouth",0,NZJQ,,,,,,0,2022-09-15T12:07:00+00:00
429845,NZOR,heliport,"Oamaru Hospital Heliport",-45.099344,170.967479,13,OC,"New Zealand",NZ,"Otago Region",NZ-OTA,OTA,Oamaru,0,NZOR,,,,,,0,2022-09-15T14:49:54+00:00
44806,NZFG,heliport,"Fern Gully Heliport",-46.8949825431,168.11103344,70,OC,"New Zealand",NZ,"Southland Region",NZ-STL,STL,Oban,0,NZFG,,,,,,0,2010-01-24T08:02:44+00:00
44823,NZOB,heliport,"Ocean Beach Heliport",-46.589698791503906,168.30599975585938,20,OC,"New Zealand",NZ,"Southland Region",NZ-STL,STL,"Ocean Beach",0,NZOB,,,,,,0,2009-08-23T20:51:26+00:00
429939,NZ-0067,closed,"Ōkaihau South Airstrip",-35.34636,173.73629,,OC,"New Zealand",NZ,"Northland Region",NZ-NTL,NTL,Ōkaihau,0,,,,,,,0,2022-09-19T12:35:03+00:00
429946,NZ-0074,closed,"Ngahuha Airstrip",-35.37072,173.98747,,OC,"New Zealand",NZ,"Northland Region",NZ-NTL,NTL,Pakaraka,0,,,,,,,0,2022-09-19T12:59:05+00:00
44824,NZJM,heliport,"Palmerston North Hospital Heliport",-40.337799072265625,175.61900329589844,128,OC,"New Zealand",NZ,"Manawatu-Wanganui Region",NZ-MWT,MWT,"Palmerston North",0,NZJM,,,,,,0,2009-08-23T21:01:01+00:00
44811,NZWE,heliport,"Kauaroa Bay Heliport",-36.8297004699707,175.0659942626953,15,OC,"New Zealand",NZ,"Auckland Region",NZ-AUK,AUK,"Poukaraka Flats",0,NZWE,,,,,,0,2009-08-23T20:47:45+00:00
44826,NZJW,heliport,"Rawene Hospital Heliport",-35.407158,173.506522,149,OC,"New Zealand",NZ,"Northland Region",NZ-NTL,NTL,Rawene,0,NZJW,,,,,,0,2022-09-15T15:45:02+00:00
44827,NZJO,heliport,"Rotorua Hospital Heliport",-38.131900787353516,176.2469940185547,979,OC,"New Zealand",NZ,"Bay of Plenty Region",NZ-BOP,BOP,Rotorua,0,NZJO,,,,,,0,2009-08-23T21:01:31+00:00
44831,NZAH,heliport,"Taharoa Iron Sands Heliport",-38.165000915527344,174.7050018310547,,OC,"New Zealand",NZ,"Waikato Region",NZ-WKO,WKO,Taharoa,0,NZAH,,,,,,0,2009-08-23T21:13:00+00:00
44833,NZJT,heliport,"Taumarunui Hospital Heliport",-38.88970184326172,175.25100708007812,675,OC,"New Zealand",NZ,"Manawatu-Wanganui Region",NZ-MWT,MWT,Taumarunui,0,NZJT,,,,,,0,2009-08-23T21:04:21+00:00
44834,NZJZ,heliport,"Taupo Hospital Heliport",-38.69860076904297,176.0989990234375,1349,OC,"New Zealand",NZ,"Waikato Region",NZ-WKO,WKO,Taupo,0,NZJZ,,,,,,0,2009-08-23T21:09:26+00:00
44835,NZJA,heliport,"Tauranga Hospital Heliport",-37.7057991027832,176.1490020751953,17,OC,"New Zealand",NZ,"Bay of Plenty Region",NZ-BOP,BOP,Tauranga,0,NZJA,,,,,,0,2009-08-23T21:06:07+00:00
429912,NZ-0040,closed,"Paua Airport",-34.55534,172.89262,295,OC,"New Zealand",NZ,"Northland Region",NZ-NTL,NTL,"Te Kao",0,,,,,,,0,2022-09-19T11:12:24+00:00
44836,NZTQ,heliport,"Te Kuiti Hospital Heliport",-38.333900451660156,175.15199279785156,250,OC,"New Zealand",NZ,"Waikato Region",NZ-WKO,WKO,"Te Kuiti",0,NZTQ,,,,,,0,2009-08-23T21:10:15+00:00
348795,NZ-0028,closed,"Chatham Islands / Te Hapupu Airport",-43.791687,-176.354689,37,OC,"New Zealand",NZ,"Wellington Region",NZ-WGN,WGN,"Te One",0,,,,,,,0,2021-10-14T17:29:27+00:00
44837,NZJP,heliport,"Te Puia Springs Hospital Heliport",-38.05481607579999,178.304291368,760,OC,"New Zealand",NZ,"Gisborne Region",NZ-GIS,GIS,"Te Puia Springs",0,NZJP,,,,,,0,2010-02-12T11:14:33+00:00
429840,NZJD,heliport,"Thames Hospital Heliport",-37.135824,175.544529,50,OC,"New Zealand",NZ,"Waikato Region",NZ-WKO,WKO,Thames,0,NZJD,,,,,,0,2022-09-15T11:21:52+00:00
44838,NZJX,heliport,"Tokoroa Hospital Heliport",-38.23189926147461,175.86099243164062,1200,OC,"New Zealand",NZ,"Waikato Region",NZ-WKO,WKO,Tokoroa,0,NZJX,,,,,,0,2009-08-23T21:11:33+00:00
44839,NZUI,heliport,"Tui Helipad",-39.4319,173.233002,60,OC,"New Zealand",NZ,"(Oil platforms)",NZ-XY,XY,"Tui Platform",0,NZUI,,,,,,0,2022-10-23T20:08:08+00:00
44842,NZJY,heliport,"Wairoa Hospital Heliport",-39.04249954223633,177.41400146484375,59,OC,"New Zealand",NZ,"Hawke's Bay Region",NZ-HKB,HKB,Wairoa,0,NZJY,,,,,,0,2009-08-23T21:12:06+00:00
44843,NZJV,heliport,"Waitakere Hospital Heliport",-36.870601654052734,174.63099670410156,70,OC,"New Zealand",NZ,"Auckland Region",NZ-AUK,AUK,Waitakere,0,NZJV,,,,,,0,2009-08-23T20:58:47+00:00
429846,NZHC,heliport,"Wanaka Lakes Health Centre Heliport",-44.709338,169.136512,1106,OC,"New Zealand",NZ,"Otago Region",NZ-OTA,OTA,Wanaka,0,NZHC,,,,,,0,2022-09-15T15:04:09+00:00
44844,NZJU,heliport,"Wanganui Hospital Heliport",-39.94329833984375,175.03900146484375,42,OC,"New Zealand",NZ,"Manawatu-Wanganui Region",NZ-MWT,MWT,Wanganui,0,NZJU,,,,,,0,2009-08-23T21:06:52+00:00
44672,NZAL,heliport,"Avalon Heliport",-41.18669891357422,174.94400024414062,93,OC,"New Zealand",NZ,"Wellington Region",NZ-WGN,WGN,Wellington,0,NZAL,,,,,,0,2009-08-10T09:04:03+00:00
44812,NZKH,heliport,"Kenepuru Hospital Heliport",-41.14500045776367,174.8350067138672,89,OC,"New Zealand",NZ,"Wellington Region",NZ-WGN,WGN,Wellington,0,NZKH,,,,,,0,2009-08-23T20:48:09+00:00
44825,NZQW,heliport,"Queens Wharf Heliport",-41.28580093383789,174.77999877929688,10,OC,"New Zealand",NZ,"Wellington Region",NZ-WGN,WGN,Wellington,0,NZQW,,,,,,0,2009-08-23T21:00:11+00:00
44845,NZWH,heliport,"Wellington Hospital Heliport",-41.30830001831055,174.7790069580078,290,OC,"New Zealand",NZ,"Wellington Region",NZ-WGN,WGN,Wellington,0,NZWH,,,,,,0,2009-08-23T20:59:43+00:00
429953,NZ-0081,closed,"Henty Airstrip",-35.45401,174.23625,,OC,"New Zealand",NZ,"Northland Region",NZ-NTL,NTL,Whakapara,0,,,,,,,0,2022-09-19T13:23:03+00:00
429954,NZ-0082,closed,"Puhipuhi Airstrip",-35.48307,174.26677,,OC,"New Zealand",NZ,"Northland Region",NZ-NTL,NTL,Whakapara,0,,,,,,,0,2022-09-19T13:23:24+00:00
429955,NZ-0083,closed,"Gibbs Airstrip",-35.51644,174.24986,,OC,"New Zealand",NZ,"Northland Region",NZ-NTL,NTL,Whakapara,0,,,,,,,0,2022-09-19T13:28:36+00:00
44846,NZJR,heliport,"Whangarei Hospital Helipad",-35.735078,174.303428,154,OC,"New Zealand",NZ,"Northland Region",NZ-NTL,NTL,Whangarei,0,NZJR,,,,,,0,2022-09-15T15:53:59+00:00
429848,NZKN,heliport,"Kensington Park Heliport",-35.704583,174.313041,131,OC,"New Zealand",NZ,"Northland Region",NZ-NTL,NTL,Whangarei,0,NZKN,,,,,,0,2022-09-15T16:03:21+00:00
